[
    {
        "id": 1,
        "name": "מתחם מגורים נווה גנים",
        "address": "האלה 15, גני תקווה",
        "status": "in-progress",
        "startDate": "2023-01-15",
        "endDate": "2024-06-30",
        "description": "בניית מתחם מגורים עם 120 דירות, גינה קהילתית ומתקני ספורט",
        "lat": 32.0615,
        "lng": 34.8732,
        "contractor": "אביב הנדסה",
        "floors": 8,
        "units": 120
    },
    {
        "id": 2,
        "name": "מרכז מסחרי גני העיר",
        "address": "התמר 8, גני תקווה",
        "status": "planned",
        "startDate": "2024-03-01",
        "endDate": "2025-12-15",
        "description": "מרכז מסחרי חדש עם חנויות, מסעדות ומתחם בילוי",
        "lat": 32.0631,
        "lng": 34.8718,
        "contractor": "דנקנר פרויקטים",
        "floors": 3,
        "units": 25
    },
    {
        "id": 3,
        "name": "מגדל מגורים גני השקמה",
        "address": "השקמה 22, גני תקווה",
        "status": "in-progress",
        "startDate": "2022-11-10",
        "endDate": "2023-12-20",
        "description": "מגדל מגורים יוקרתי עם 60 דירות וחניון תת-קרקעי",
        "lat": 32.0602,
        "lng": 34.8756,
        "contractor": "שיכון ובינוי",
        "floors": 12,
        "units": 60
    },
    {
        "id": 4,
        "name": "שיפוץ בית ספר גני תקווה",
        "address": "הדקל 5, גני תקווה",
        "status": "completed",
        "startDate": "2021-07-01",
        "endDate": "2022-08-30",
        "description": "שיפוץ מקיף לבית הספר היסודי כולל הוספת כיתות ומתקנים",
        "lat": 32.0587,
        "lng": 34.8723,
        "contractor": "מנצ'ס בנייה",
        "floors": 2,
        "units": 0
    },
    {
        "id": 5,
        "name": "פארק קהילתי גני הטבע",
        "address": "הברוש 12, גני תקווה",
        "status": "in-progress",
        "startDate": "2023-03-15",
        "endDate": "2023-11-30",
        "description": "פיתוח פארק קהילתי עם מתקני משחקים, מסלולי הליכה ואגם מלאכותי",
        "lat": 32.0628,
        "lng": 34.8771,
        "contractor": "ירוק בעיר",
        "floors": 0,
        "units": 0
    },
    {
        "id": 6,
        "name": "הרחבת כביש הגישה",
        "address": "שדרות גני תקווה",
        "status": "planned",
        "startDate": "2024-01-01",
        "endDate": "2024-06-30",
        "description": "הרחבת כביש הגישה הראשי לעיר והוספת מסלולי תחבורה ציבורית",
        "lat": 32.0593,
        "lng": 34.8698,
        "contractor": "סולל בונה",
        "floors": 0,
        "units": 0
    }
]
